{
"type": "FeatureCollection",
"name": "FD_locations",
"crs": { "type": "name", "properties": { "name": "urn:ogc:def:crs:EPSG::4269" } },
"features": [
{ "type": "Feature", "properties": { "id": 1, "department": "Bald Head Island Fire & Rescue", "name": "Bald Head VFD", "type": "Volunteer Fire Department", "address": "251 Edward Teach Wynd, Bald Head Island, NC 28461", "coordinates": "33.858588, -77.985895", "lat-y": 33.858588, "long-x": -77.985895, "phone": "457-5252", "fax": "457-4585", "county": "Brunswick", "notes": null }, "geometry": { "type": "Point", "coordinates": [ -77.98589, 33.85859 ] } },
{ "type": "Feature", "properties": { "id": 2, "department": "Boiling Spring Lakes Volunteer Fire Department, HQ, Station 4", "name": "BSL VFD HQ, Sta 4", "type": "Volunteer Fire Department", "address": "3059 George II Hwy, Southport, NC 28461", "coordinates": "34.031850, -78.068170 ", "lat-y": 34.03185, "long-x": -78.06817, "phone": "845-2818", "fax": "845-2878", "county": "Brunswick", "notes": "Headquarters Building" }, "geometry": { "type": "Point", "coordinates": [ -78.06817, 34.03185 ] } },
{ "type": "Feature", "properties": { "id": 3, "department": "Boiling Spring Lakes Volunteer Fire Department, Station 1", "name": "BSL VFD, Sta 1", "type": "Volunteer Fire Department", "address": "25 Miller Rd., Southport, NC 28461", "coordinates": "34.032250, -78.067602", "lat-y": 34.03225, "long-x": -78.067602, "phone": null, "fax": null, "county": "Brunswick", "notes": "Engine 471, Brush 478, Service 485, Tanker 477, Boiling Spring Lakes Fire District" }, "geometry": { "type": "Point", "coordinates": [ -78.0676, 34.03225 ] } },
{ "type": "Feature", "properties": { "id": 4, "department": "Boiling Spring Lakes Volunteer Fire Department, Station 2", "name": "BSL VFD, Sta 2", "type": "Volunteer Fire Department", "address": "2440 Frink Lake Dr., Southport, NC 28461", "coordinates": "34.064642, -78.031360", "lat-y": 34.064642, "long-x": -78.03136, "phone": null, "fax": null, "county": "Brunswick", "notes": "Engine 472, Tanker 475" }, "geometry": { "type": "Point", "coordinates": [ -78.03136, 34.06464 ] } },
{ "type": "Feature", "properties": { "id": 5, "department": "Boiling Spring Lakes Volunteer Fire Department, Station 3", "name": "BSL VFD, Sta 3", "type": "Volunteer Fire Department", "address": "900 Fifty Lakes Dr., Southport, NC 28461", "coordinates": "34.028629, -78.035526", "lat-y": 34.028629, "long-x": -78.035526, "phone": null, "fax": null, "county": "Brunswick", "notes": "Engine 472, Tanker 475, Tanker 476, Brush 479, Service 481, Boat 490, Command 480" }, "geometry": { "type": "Point", "coordinates": [ -78.03553, 34.02863 ] } },
{ "type": "Feature", "properties": { "id": 6, "department": "Bolivia Fire Department", "name": "Boliva FD", "type": "Fire Department", "address": "3848 Old Ocean Hwy, Bolivia, NC 28422", "coordinates": "34.065679, -78.149352", "lat-y": 34.065679, "long-x": -78.149352, "phone": "253-5025", "fax": "253-3476", "county": "Brunswick", "notes": null }, "geometry": { "type": "Point", "coordinates": [ -78.14935, 34.06568 ] } },
{ "type": "Feature", "properties": { "id": 7, "department": "Bolivia Volunteer Fire Department, Station 7", "name": "Boliva VFD", "type": "Volunteer Fire Department", "address": "119 Green Lewis Rd. SE, Bolivia, NC 28422", "coordinates": "34.064219, -78.144960", "lat-y": 34.064219, "long-x": -78.14496, "phone": null, "fax": null, "county": "Brunswick", "notes": null }, "geometry": { "type": "Point", "coordinates": [ -78.14496, 34.06422 ] } },
{ "type": "Feature", "properties": { "id": 8, "department": "Calabash Volunteer Fire Department Station 12-1", "name": "Calabash VFD Sta 12-1", "type": "Volunteer Fire Department", "address": "892 Persimmon Rd., Calabash, NC 28467", "coordinates": "33.892987, -78.566238", "lat-y": 33.892987, "long-x": -78.566238, "phone": "579-2355", "fax": "579-5024", "county": "Brunswick", "notes": null }, "geometry": { "type": "Point", "coordinates": [ -78.56624, 33.89299 ] } },
{ "type": "Feature", "properties": { "id": 9, "department": "Calabash Volunteer Fire Department Station 12-2", "name": "Calabash VFD Sta 12-2", "type": "Volunteer Fire Department", "address": "8995 Number 5 School Rd NW, Calabash, NC 28467", "coordinates": "33.953621, -78.575031", "lat-y": 33.953621, "long-x": -78.575031, "phone": null, "fax": null, "county": "Brunswick", "notes": null }, "geometry": { "type": "Point", "coordinates": [ -78.57503, 33.95362 ] } },
{ "type": "Feature", "properties": { "id": 10, "department": "Civietown Volunteer Fire Department", "name": "Civietown VFD", "type": "Volunteer Fire Department", "address": "2227 Civietown Rd. SW, Supply, NC 28462", "coordinates": "33.967662, -78.328341", "lat-y": 33.967662, "long-x": -78.328341, "phone": "754-8392", "fax": "755-8012", "county": "Brunswick", "notes": null }, "geometry": { "type": "Point", "coordinates": [ -78.32834, 33.96766 ] } },
{ "type": "Feature", "properties": { "id": 11, "department": "Giseettown\/Longwood Volunteer Fire Department", "name": "Giseettown\/Longwood VFD", "type": "Volunteer Fire Department", "address": "758 Longwood Rd., Ocean Isle, NC 28469", "coordinates": "33.966390, -78.516512", "lat-y": 33.96639, "long-x": -78.516512, "phone": "287-3030", "fax": "287-1794", "county": "Brunswick", "notes": null }, "geometry": { "type": "Point", "coordinates": [ -78.51651, 33.96639 ] } },
{ "type": "Feature", "properties": { "id": 12, "department": "Leland Volunteer Fire & Rescue Station 50", "name": "Leland VFD Sta 50", "type": "Volunteer Fire Department", "address": "1004 Village Rd. NE, Leland, NC 28451", "coordinates": "34.248556, -78.027689", "lat-y": 34.248556, "long-x": -78.027689, "phone": "371-2727", "fax": "371-1838", "county": "Brunswick", "notes": null }, "geometry": { "type": "Point", "coordinates": [ -78.02769, 34.24856 ] } },
{ "type": "Feature", "properties": { "id": 13, "department": "Leland Volunteer Fire & Rescue Station 52", "name": "Leland VFD Sta 52", "type": "Volunteer Fire Department", "address": "1379 River Rd., Winnabow, NC 28479", "coordinates": "34.189458, -77.987550", "lat-y": 34.189458, "long-x": -77.98755, "phone": null, "fax": null, "county": "Brunswick", "notes": null }, "geometry": { "type": "Point", "coordinates": [ -77.98755, 34.18946 ] } },
{ "type": "Feature", "properties": { "id": 14, "department": "Navassa Volunteer Fire Department Station 18", "name": "Navassa VFD Sta 18", "type": "Volunteer Fire Department", "address": "2680 Daniels Rd., Leland, NC 28451", "coordinates": "34.296541, -78.044415", "lat-y": 34.296541, "long-x": -78.044415, "phone": null, "fax": null, "county": "Brunswick", "notes": "Bass Carlisle Memorial Station" }, "geometry": { "type": "Point", "coordinates": [ -78.04442, 34.29654 ] } },
{ "type": "Feature", "properties": { "id": 15, "department": "Navassa Volunteer Fire Department Station 19", "name": "Navassa VFD Sta 19", "type": "Volunteer Fire Department", "address": "336 N. Main St. Navassa, NC 28451", "coordinates": "34.256536, -78.009664", "lat-y": 34.256536, "long-x": -78.009664, "phone": "371-9988", "fax": "371-0110", "county": "Brunswick", "notes": "Brown Moore Memorial Station" }, "geometry": { "type": "Point", "coordinates": [ -78.00966, 34.25654 ] } },
{ "type": "Feature", "properties": { "id": 16, "department": "Northwest Volunteer Fire Department Station 33", "name": "NW VFD Sta 33", "type": "Volunteer Fire Department", "address": "5029 Blue Banks Loop Rd NE. Leland, NC 28456", "coordinates": "34.313961, -78.159947", "lat-y": 34.313961, "long-x": -78.159947, "phone": "655-2668", "fax": "655-2673", "county": "Brunswick", "notes": null }, "geometry": { "type": "Point", "coordinates": [ -78.15995, 34.31396 ] } },
{ "type": "Feature", "properties": { "id": 17, "department": "Oak Island Fire & Rescue Station 1", "name": "Oak Island FD Sta 1", "type": "Fire Department", "address": "101 E Oak Island Dr., Oak Island, NC 28465", "coordinates": "33.920199, -78.159429", "lat-y": 33.920199, "long-x": -78.159429, "phone": null, "fax": null, "county": "Brunswick", "notes": "Ladder 163, Rescue 173, Ambulance 195, Pickup 180" }, "geometry": { "type": "Point", "coordinates": [ -78.15943, 33.9202 ] } },
{ "type": "Feature", "properties": { "id": 18, "department": "Oak Island Fire Department HQ, Yaupon Beach, Station 2", "name": "Oak Island FD Sta 2", "type": "Fire Department", "address": "8510 E Oak Island Dr., Oak Island, NC 28465", "coordinates": "33.908946, -78.079195", "lat-y": 33.908946, "long-x": -78.079195, "phone": null, "fax": null, "county": "Brunswick", "notes": null }, "geometry": { "type": "Point", "coordinates": [ -78.07919, 33.90895 ] } },
{ "type": "Feature", "properties": { "id": 19, "department": "Oak Island Fire Department, South Harbor, Station 3", "name": "Oak Island FD Sta 3", "type": "Fire Department", "address": "4151 Vanessa Dr., Southport, NC 28461", "coordinates": "33.928572, -78.068006", "lat-y": 33.928572, "long-x": -78.068006, "phone": null, "fax": null, "county": "Brunswick", "notes": "Platform 162, Engine 172, Ambulance 196" }, "geometry": { "type": "Point", "coordinates": [ -78.06801, 33.92857 ] } },
{ "type": "Feature", "properties": { "id": 20, "department": "Oak Island Water Rescue, Station 44", "name": "Oak Island Water Rescue Sta 44", "type": "Water Rescue", "address": "4901 E. Pelican Dr., Oak Island, NC 28465", "coordinates": "33.910840, -78.114363 ", "lat-y": 33.91084, "long-x": -78.114363, "phone": null, "fax": null, "county": "Brunswick", "notes": null }, "geometry": { "type": "Point", "coordinates": [ -78.11436, 33.91084 ] } },
{ "type": "Feature", "properties": { "id": 21, "department": "Ocean Isle Beach Fire Department", "name": "Ocean Isle Beach FD", "type": "Fire Department", "address": "105 Causeway Dr., Ocean Isle Beach, NC 28464", "coordinates": "33.899852, -78.440160", "lat-y": 33.899852, "long-x": -78.44016, "phone": "579-2804", "fax": "579-2808", "county": "Brunswick", "notes": null }, "geometry": { "type": "Point", "coordinates": [ -78.44016, 33.89985 ] } },
{ "type": "Feature", "properties": { "id": 22, "department": "Shallotte Fire Department Station 1", "name": "Shallotte FD Sta 1", "type": "Fire Department", "address": "125 Wall Street, Shallotte, NC 28470", "coordinates": "33.974147, -78.381187", "lat-y": 33.974147, "long-x": -78.381187, "phone": "754-6262", "fax": "755-6226", "county": "Brunswick", "notes": null }, "geometry": { "type": "Point", "coordinates": [ -78.38119, 33.97415 ] } },
{ "type": "Feature", "properties": { "id": 23, "department": "Shallotte Fire Department Station 2", "name": "Shallotte FD Sta 2", "type": "Fire Department", "address": "920 Whiteville Rd. NW, Shallotte, NC 28470", "coordinates": "33.986846, -78.426389", "lat-y": 33.986846, "long-x": -78.426389, "phone": null, "fax": null, "county": "Brunswick", "notes": null }, "geometry": { "type": "Point", "coordinates": [ -78.42639, 33.98685 ] } },
{ "type": "Feature", "properties": { "id": 24, "department": "Shallotte Fire Department Station 3", "name": "Shallotte FD Sta 3", "type": "Fire Department", "address": "40 Naber Dr., Shallotte, NC 28470", "coordinates": "33.961700, -78.414543", "lat-y": 33.9617, "long-x": -78.414543, "phone": null, "fax": null, "county": "Brunswick", "notes": null }, "geometry": { "type": "Point", "coordinates": [ -78.41454, 33.9617 ] } },
{ "type": "Feature", "properties": { "id": 25, "department": "Shallotte Point Volunteer Fire Department", "name": "Shallotte Point VFD", "type": "Volunteer Fire Department", "address": "4126 Pigott Rd. SW, Shallotte, NC 28470", "coordinates": "33.925316, -78.378810", "lat-y": 33.925316, "long-x": -78.37881, "phone": "754-6505", "fax": "755-6505", "county": "Brunswick", "notes": null }, "geometry": { "type": "Point", "coordinates": [ -78.37881, 33.92532 ] } },
{ "type": "Feature", "properties": { "id": 26, "department": "Southport Fire Department", "name": "Southport FD", "type": "Fire Department", "address": "1011 N. Howe St., Southport, NC 28461", "coordinates": "33.930628, -78.022962", "lat-y": 33.930628, "long-x": -78.022962, "phone": "457-7915", "fax": "457-7567", "county": "Brunswick", "notes": null }, "geometry": { "type": "Point", "coordinates": [ -78.02296, 33.93063 ] } },
{ "type": "Feature", "properties": { "id": 27, "department": "Southport Fire Department EMS & Rescue HQ", "name": "Southport FD HQ", "type": "Fire Department", "address": "111 E. Nash St., Southport, NC 28461", "coordinates": "33.919678, -78.018553", "lat-y": 33.919678, "long-x": -78.018553, "phone": null, "fax": null, "county": "Brunswick", "notes": null }, "geometry": { "type": "Point", "coordinates": [ -78.01855, 33.91968 ] } },
{ "type": "Feature", "properties": { "id": 28, "department": "Southport Fire Department Substation", "name": "Southport FD Sub", "type": "Fire Department", "address": "4884 Old Long Beach Rd. SE, Southport, NC 28461", "coordinates": "33.949348, -78.050368 ", "lat-y": 33.949348, "long-x": -78.050368, "phone": null, "fax": null, "county": "Brunswick", "notes": null }, "geometry": { "type": "Point", "coordinates": [ -78.05037, 33.94935 ] } },
{ "type": "Feature", "properties": { "id": 29, "department": "Southport Fire Department Substation - Caswell Beach ", "name": "Southport FD Sub - Caswell", "type": "Fire Department", "address": "1100 Caswell Beach Road, Caswell Beach, NC 28465", "coordinates": "34.148911, -78.088451", "lat-y": 34.148911, "long-x": -78.088451, "phone": "278-6797", "fax": "278-6798", "county": "Brunswick", "notes": null }, "geometry": { "type": "Point", "coordinates": [ -78.08845, 34.14891 ] } },
{ "type": "Feature", "properties": { "id": 30, "department": "St. James Volunteer Fire Department, Station 1", "name": "St. James VFD Sta 1", "type": "Volunteer Fire Department", "address": "3628 St. James Dr. SE Southport, NC 28461", "coordinates": "33.942811, -78.094236", "lat-y": 33.942811, "long-x": -78.094236, "phone": "253-9990", "fax": "253-9991", "county": "Brunswick", "notes": null }, "geometry": { "type": "Point", "coordinates": [ -78.09424, 33.94281 ] } },
{ "type": "Feature", "properties": { "id": 31, "department": "St. James Volunteer Fire Department, Station 2", "name": "St. James VFD Sta 2", "type": "Volunteer Fire Department", "address": "3627 Oceanic Dr., Southport, NC 28461", "coordinates": "33.960388, -78.116929", "lat-y": 33.960388, "long-x": -78.116929, "phone": null, "fax": null, "county": "Brunswick", "notes": null }, "geometry": { "type": "Point", "coordinates": [ -78.11693, 33.96039 ] } },
{ "type": "Feature", "properties": { "id": 32, "department": "Sunny Point Fire Department", "name": "Sunny Point FD", "type": "Military Fire Department", "address": "6280 Sunny Point Rd., Southport, NC 28461", "coordinates": "33.994590, -78.007278", "lat-y": 33.99459, "long-x": -78.007278, "phone": "341-8219", "fax": "341-8615", "county": "Brunswick", "notes": "Military Ocean Terminal at Sunny Point (MOTSU)" }, "geometry": { "type": "Point", "coordinates": [ -78.00728, 33.99459 ] } },
{ "type": "Feature", "properties": { "id": 33, "department": "Sunny Point Fire Department (Fire Boat)", "name": "Sunny Point FD (Boat)", "type": "Military Fire Department", "address": "6280 Sunny Point Rd., Southport, NC 28461", "coordinates": "34.000431, -77.954561", "lat-y": 34.000431, "long-x": -77.954561, "phone": null, "fax": null, "county": "Brunswick", "notes": "Military Ocean Terminal at Sunny Point (MOTSU)" }, "geometry": { "type": "Point", "coordinates": [ -77.95456, 34.00043 ] } },
{ "type": "Feature", "properties": { "id": 34, "department": "Sunset Beach Fire Department Station 1", "name": "Sunset Beach FD Sta 1", "type": "Fire Department", "address": "102 West Shoreline Dr. W. Sunset Beach, NC 28468", "coordinates": "33.884087, -78.512278", "lat-y": 33.884087, "long-x": -78.512278, "phone": "579-2456", "fax": "579-2941", "county": "Brunswick", "notes": null }, "geometry": { "type": "Point", "coordinates": [ -78.51228, 33.88409 ] } },
{ "type": "Feature", "properties": { "id": 35, "department": "Sunset Beach Fire Department Station 2", "name": "Sunset Beach FD Sta 2", "type": "Fire Department", "address": "7149 Old Georgetown Rd., Ocean Isle Beach, NC 28469", "coordinates": "33.917257, -78.488870", "lat-y": 33.917257, "long-x": -78.48887, "phone": null, "fax": null, "county": "Brunswick", "notes": null }, "geometry": { "type": "Point", "coordinates": [ -78.48887, 33.91726 ] } },
{ "type": "Feature", "properties": { "id": 36, "department": "Sunset Harbor\/Zion Hill Volunteer Fire Department, Station 18", "name": "Sunset Harbor\/Zion Hill VFD Sta 18", "type": "Volunteer Fire Department", "address": "2706 Sunset Harbor Rd. Bolivia, NC 28422", "coordinates": "33.954811, -78.211634", "lat-y": 33.954811, "long-x": -78.211634, "phone": "842-9449", "fax": "842-9474", "county": "Brunswick", "notes": null }, "geometry": { "type": "Point", "coordinates": [ -78.21163, 33.95481 ] } },
{ "type": "Feature", "properties": { "id": 37, "department": "Supply Volunteer Fire Department, Station 13", "name": "Supply VFD Sta 13", "type": "Volunteer Fire Department", "address": "47 Southport-Supply Rd SE, Supply, NC 28462", "coordinates": "34.016031, -78.271434", "lat-y": 34.016031, "long-x": -78.271434, "phone": "754-8259", "fax": "754-7280", "county": "Brunswick", "notes": null }, "geometry": { "type": "Point", "coordinates": [ -78.27143, 34.01603 ] } },
{ "type": "Feature", "properties": { "id": 38, "department": "Tri-Beach Volunteer Fire Department Station 1", "name": "Tri-Beach VFD Sta 1", "type": "Volunteer Fire Department", "address": "854 Sabbath Home Rd. SW, Supply, NC 28462", "coordinates": "33.931906, -78.262910", "lat-y": 33.931906, "long-x": -78.26291, "phone": "842-2333", "fax": "842-5493", "county": "Brunswick", "notes": null }, "geometry": { "type": "Point", "coordinates": [ -78.26291, 33.93191 ] } },
{ "type": "Feature", "properties": { "id": 39, "department": "Tri-Beach Volunteer Fire Department Station 2", "name": "Tri-Beach VFD Sta 2", "type": "Volunteer Fire Department", "address": "572 Ocean Blvd West, Holden Beach, NC 28462", "coordinates": "33.910909, -78.307472", "lat-y": 33.910909, "long-x": -78.307472, "phone": null, "fax": null, "county": "Brunswick", "notes": null }, "geometry": { "type": "Point", "coordinates": [ -78.30747, 33.91091 ] } },
{ "type": "Feature", "properties": { "id": 40, "department": "Tri-Beach Volunteer Fire Department Station 3", "name": "Tri-Beach VFD Sta 3", "type": "Volunteer Fire Department", "address": "2707 Seashore Rd. SW, Supply, NC 28462", "coordinates": "33.920530, -78.323095", "lat-y": 33.92053, "long-x": -78.323095, "phone": null, "fax": null, "county": "Brunswick", "notes": null }, "geometry": { "type": "Point", "coordinates": [ -78.32309, 33.92053 ] } },
{ "type": "Feature", "properties": { "id": 41, "department": "Waccamaw Volunteer Fire Department", "name": "Waccamaw VFD", "type": "Volunteer Fire Department", "address": "4045 Whiteville Rd. NW, Ash, NC 28420", "coordinates": "34.062298, -78.523405", "lat-y": 34.062298, "long-x": -78.523405, "phone": "287-3380", "fax": "287-3651", "county": "Brunswick", "notes": null }, "geometry": { "type": "Point", "coordinates": [ -78.5234, 34.0623 ] } },
{ "type": "Feature", "properties": { "id": 42, "department": "Winnabow Volunteer Fire Department (Colon Mintz Road Station)", "name": "Winnabow VFD (Colon)", "type": "Volunteer Fire Department", "address": "1905 Colon Mintz Road, Leland, NC 28451", "coordinates": "34.236558, -78.113701", "lat-y": 34.236558, "long-x": -78.113701, "phone": null, "fax": null, "county": "Brunswick", "notes": "Engine 673, Tanker 668" }, "geometry": { "type": "Point", "coordinates": [ -78.1137, 34.23656 ] } },
{ "type": "Feature", "properties": { "id": 43, "department": "Winnabow Volunteer Fire Department (Governors Road Station)", "name": "Winnabow VFD (Gov)", "type": "Volunteer Fire Department", "address": "161 Governors Rd. SE, Winnabow, NC 28479", "coordinates": "33.904055, -78.073834", "lat-y": 33.904055, "long-x": -78.073834, "phone": "253-5505", "fax": "253-5501", "county": "Brunswick", "notes": "Engine 671, Engine 672, Tanker 669, QRV 682, Brush 686" }, "geometry": { "type": "Point", "coordinates": [ -78.07383, 33.90405 ] } }
]
}
